{"type": "FeatureCollection", "features": [{"type": "Feature", "properties": {"name": "Paseo de La Florida (Ayunt. Oviedo)"}, "geometry": {"type": "Point", "coordinates": [43.367574, -5.876762]}}, {"type": "Feature", "properties": {"name": "Mercadona La Florida"}, "geometry": {"type": "Point", "coordinates": [43.366521, -5.872562]}}, {"type": "Feature", "properties": {"name": "Calle Jos\u00e9 Mar\u00eda Mart\u00ednez Cachero (Ayunt. Oviedo)"}, "geometry": {"type": "Point", "coordinates": [43.363554, -5.874963]}}, {"type": "Feature", "properties": {"name": "Calle Alejandro Casona (Ayunt. Oviedo)"}, "geometry": {"type": "Point", "coordinates": [43.362473, -5.865971]}}, {"type": "Feature", "properties": {"name": "Calle de la Regenta (Ayunt. Oviedo)"}, "geometry": {"type": "Point", "coordinates": [43.360273, -5.86536]}}, {"type": "Feature", "properties": {"name": "Calle Juli\u00e1n Claver\u00eda (Ayunt. Oviedo)"}, "geometry": {"type": "Point", "coordinates": [43.354286, -5.868774]}}, {"type": "Feature", "properties": {"name": "Calle Celestino \u00c1lvarez (Ayunt. Oviedo)"}, "geometry": {"type": "Point", "coordinates": [43.352049, -5.866254]}}, {"type": "Feature", "properties": {"name": "Calle Pilo\u00f1a (Ayunt. Oviedo)"}, "geometry": {"type": "Point", "coordinates": [43.352152, -5.861924]}}, {"type": "Feature", "properties": {"name": "Calle El Valle (Ayunt. Oviedo)"}, "geometry": {"type": "Point", "coordinates": [43.354074, -5.862269]}}, {"type": "Feature", "properties": {"name": "Mercadona Montecerr\u00e1u"}, "geometry": {"type": "Point", "coordinates": [43.35465, -5.860018]}}, {"type": "Feature", "properties": {"name": "Palacio de Congresos Oviedo (Ayunt. Oviedo)"}, "geometry": {"type": "Point", "coordinates": [43.357476, -5.861647]}}, {"type": "Feature", "properties": {"name": "Calle Hangzhou (Ayunt. Oviedo)"}, "geometry": {"type": "Point", "coordinates": [43.374259, -5.857427]}}, {"type": "Feature", "properties": {"name": "Calle Pe\u00f1a Santa de Enol (Ayunt. Oviedo)"}, "geometry": {"type": "Point", "coordinates": [43.366209, -5.857297]}}, {"type": "Feature", "properties": {"name": "Calle Arquitecto Reguera (Ayunt. Oviedo)"}, "geometry": {"type": "Point", "coordinates": [43.364687, -5.855464]}}, {"type": "Feature", "properties": {"name": "Calle Marqu\u00e9s de Pidal (Ayunt. Oviedo)"}, "geometry": {"type": "Point", "coordinates": [43.364136, -5.853309]}}, {"type": "Feature", "properties": {"name": "Calle Luis Fern\u00e1ndez-Vega Sanz (Ayunt. Oviedo)"}, "geometry": {"type": "Point", "coordinates": [43.360218, -5.854765]}}, {"type": "Feature", "properties": {"name": "Plaza de Espa\u00f1a (Ayunt. Oviedo)"}, "geometry": {"type": "Point", "coordinates": [43.359833, -5.852479]}}, {"type": "Feature", "properties": {"name": "Univ. Oviedo Campus Llamaquique (Zunder)"}, "geometry": {"type": "Point", "coordinates": [43.35827, -5.854209]}}, {"type": "Feature", "properties": {"name": "Calle Leopoldo Calvo Sotelo (Ayunt. Oviedo)"}, "geometry": {"type": "Point", "coordinates": [43.357654, -5.853122]}}, {"type": "Feature", "properties": {"name": "Parking Plaza de la Gesta de Oviedo"}, "geometry": {"type": "Point", "coordinates": [43.357892, -5.852141]}}, {"type": "Feature", "properties": {"name": "Calle Vald\u00e9s Salas (Ayunt. Oviedo)"}, "geometry": {"type": "Point", "coordinates": [43.355211, -5.851106]}}, {"type": "Feature", "properties": {"name": "Univ. Oviedo Campus Catalanes (Zunder)"}, "geometry": {"type": "Point", "coordinates": [43.354768, -5.851746]}}, {"type": "Feature", "properties": {"name": "Calle de Otero (Ayunt. Oviedo)"}, "geometry": {"type": "Point", "coordinates": [43.353887, -5.838145]}}, {"type": "Feature", "properties": {"name": "Calle Arzobispo Guisasola (Ayunt. Oviedo)"}, "geometry": {"type": "Point", "coordinates": [43.358491, -5.844243]}}, {"type": "Feature", "properties": {"name": "Calle Padre Su\u00e1rez (Ayunt. Oviedo)"}, "geometry": {"type": "Point", "coordinates": [43.358816, -5.842706]}}, {"type": "Feature", "properties": {"name": "Calle Santa Susana (Ayunt. Oviedo)"}, "geometry": {"type": "Point", "coordinates": [43.359381, -5.850103]}}, {"type": "Feature", "properties": {"name": "Calle Jer\u00f3nimo Ibr\u00e1n (Ayunt. Oviedo)"}, "geometry": {"type": "Point", "coordinates": [43.368216, -5.85088]}}, {"type": "Feature", "properties": {"name": "Parking centro comercial Salesas"}, "geometry": {"type": "Point", "coordinates": [43.367123, -5.849158]}}, {"type": "Feature", "properties": {"name": "Mercadona Oviedo"}, "geometry": {"type": "Point", "coordinates": [43.367899, -5.848768]}}, {"type": "Feature", "properties": {"name": "Parking APK2 Longoria Carbajal"}, "geometry": {"type": "Point", "coordinates": [43.364628, -5.848457]}}, {"type": "Feature", "properties": {"name": "Calle Foncalada"}, "geometry": {"type": "Point", "coordinates": [43.365029, -5.846421]}}, {"type": "Feature", "properties": {"name": "Calle Foncalada (Ayunt. Oviedo)"}, "geometry": {"type": "Point", "coordinates": [43.36595, -5.846263]}}, {"type": "Feature", "properties": {"name": "Parking Calle V\u00edctor Ch\u00e1varri"}, "geometry": {"type": "Point", "coordinates": [43.364754, -5.843685]}}, {"type": "Feature", "properties": {"name": "Hotel Regente"}, "geometry": {"type": "Point", "coordinates": [43.36424, -5.8428]}}, {"type": "Feature", "properties": {"name": "Calle Fernando Vela (Ayunt. Oviedo)"}, "geometry": {"type": "Point", "coordinates": [43.366614, -5.842421]}}, {"type": "Feature", "properties": {"name": "Calle Melqu\u00edades Cabal (Ayunt. Oviedo)"}, "geometry": {"type": "Point", "coordinates": [43.36798, -5.842407]}}, {"type": "Feature", "properties": {"name": "Avenida de Torrelavega (Ayunt. Oviedo)"}, "geometry": {"type": "Point", "coordinates": [43.36386, -5.836144]}}, {"type": "Feature", "properties": {"name": "Calle Joaqu\u00edn Blume (Ayunt. Oviedo)"}, "geometry": {"type": "Point", "coordinates": [43.366095, -5.831111]}}, {"type": "Feature", "properties": {"name": "Parking Pumar\u00edn"}, "geometry": {"type": "Point", "coordinates": [43.369032, -5.847378]}}, {"type": "Feature", "properties": {"name": "Calle Palmira Villa Gonz\u00e1lez-R\u00edo (Ayunt. Oviedo)"}, "geometry": {"type": "Point", "coordinates": [43.370009, -5.847156]}}, {"type": "Feature", "properties": {"name": "Univ. Oviedo Del Mil\u00e1n (Zunder)"}, "geometry": {"type": "Point", "coordinates": [43.368743, -5.841367]}}, {"type": "Feature", "properties": {"name": "Avenida del Cant\u00e1brico (Ayunt. Oviedo)"}, "geometry": {"type": "Point", "coordinates": [43.372561, -5.843198]}}, {"type": "Feature", "properties": {"name": "Lidl Oviedo"}, "geometry": {"type": "Point", "coordinates": [43.377407, -5.834581]}}, {"type": "Feature", "properties": {"name": "Calle Juan L\u00f3pez-Arranz (Ayunt. Oviedo)"}, "geometry": {"type": "Point", "coordinates": [43.375138, -5.831921]}}, {"type": "Feature", "properties": {"name": "Carretera del Rub\u00edn (Ayunt. Oviedo)"}, "geometry": {"type": "Point", "coordinates": [43.372927, -5.825502]}}, {"type": "Feature", "properties": {"name": "Alimerka Prado de la Vega"}, "geometry": {"type": "Point", "coordinates": [43.379877, -5.816731]}}, {"type": "Feature", "properties": {"name": "Calle Daniel Moyano (Ayunt. Oviedo)"}, "geometry": {"type": "Point", "coordinates": [43.382264, -5.824005]}}, {"type": "Feature", "properties": {"name": "Calle Sabino \u00c1lvarez Gend\u00edn (Ayunt. Oviedo)"}, "geometry": {"type": "Point", "coordinates": [43.38322, -5.818248]}}, {"type": "Feature", "properties": {"name": "Centro Asturiano de Oviedo"}, "geometry": {"type": "Point", "coordinates": [43.380473, -5.874379]}}, {"type": "Feature", "properties": {"name": "Calle Luis Su\u00e1rez \u00abXimielga\u00bb (Ayunt. Oviedo)"}, "geometry": {"type": "Point", "coordinates": [43.377957, -5.795391]}}, {"type": "Feature", "properties": {"name": "Gij\u00f3n - Oriental"}, "geometry": {"type": "Point", "coordinates": [43.540492, -5.697004]}}, {"type": "Feature", "properties": {"name": "Lidl Gij\u00f3n"}, "geometry": {"type": "Point", "coordinates": [43.535017, -5.692192]}}, {"type": "Feature", "properties": {"name": "E.S. Ballenoil La Calzada"}, "geometry": {"type": "Point", "coordinates": [43.535035, -5.690133]}}, {"type": "Feature", "properties": {"name": "El Corte Ingl\u00e9s Hipercor (Gij\u00f3n)"}, "geometry": {"type": "Point", "coordinates": [43.524065, -5.679222]}}, {"type": "Feature", "properties": {"name": "Parque de Carlos Marx"}, "geometry": {"type": "Point", "coordinates": [43.536609, -5.6726]}}, {"type": "Feature", "properties": {"name": "Mercadona Gij\u00f3n"}, "geometry": {"type": "Point", "coordinates": [43.537896, -5.672012]}}, {"type": "Feature", "properties": {"name": "Parking Espig\u00f3n"}, "geometry": {"type": "Point", "coordinates": [43.54325, -5.666568]}}, {"type": "Feature", "properties": {"name": "Calle \u00c1lvarez Garaya 10"}, "geometry": {"type": "Point", "coordinates": [43.541324, -5.665551]}}, {"type": "Feature", "properties": {"name": "Calle \u00c1lvaro de Albornoz"}, "geometry": {"type": "Point", "coordinates": [43.537916, -5.66642]}}, {"type": "Feature", "properties": {"name": "Calle Juan Alvargonzalez"}, "geometry": {"type": "Point", "coordinates": [43.53031, -5.668825]}}, {"type": "Feature", "properties": {"name": "Avenida Gaspar Garc\u00eda Laviana"}, "geometry": {"type": "Point", "coordinates": [43.525782, -5.665873]}}, {"type": "Feature", "properties": {"name": "Calle R\u00edo de Oro"}, "geometry": {"type": "Point", "coordinates": [43.527558, -5.663792]}}, {"type": "Feature", "properties": {"name": "Calle La Argandona"}, "geometry": {"type": "Point", "coordinates": [43.535503, -5.663979]}}, {"type": "Feature", "properties": {"name": "APK2 Parking Plaza de Europa"}, "geometry": {"type": "Point", "coordinates": [43.538483, -5.663596]}}, {"type": "Feature", "properties": {"name": "Calle Periodista Adeflor"}, "geometry": {"type": "Point", "coordinates": [43.538026, -5.661913]}}, {"type": "Feature", "properties": {"name": "Parking Jardines del Na\u00fatico (Telepark)"}, "geometry": {"type": "Point", "coordinates": [43.542192, -5.660199]}}, {"type": "Feature", "properties": {"name": "Antigua Pescaderia Municipal"}, "geometry": {"type": "Point", "coordinates": [43.544436, -5.662169]}}, {"type": "Feature", "properties": {"name": "Plaza San Miguel"}, "geometry": {"type": "Point", "coordinates": [43.539997, -5.658071]}}, {"type": "Feature", "properties": {"name": "Parking Zarracina"}, "geometry": {"type": "Point", "coordinates": [43.536984, -5.656813]}}, {"type": "Feature", "properties": {"name": "8D Calle Pe\u00f1alba"}, "geometry": {"type": "Point", "coordinates": [43.535414, -5.654622]}}, {"type": "Feature", "properties": {"name": "Parking Plaza Bego\u00f1a"}, "geometry": {"type": "Point", "coordinates": [43.537385, -5.660194]}}, {"type": "Feature", "properties": {"name": "7 Avenida de El Llano"}, "geometry": {"type": "Point", "coordinates": [43.534402, -5.66031]}}, {"type": "Feature", "properties": {"name": "Calle Canga Arg\u00fcelles"}, "geometry": {"type": "Point", "coordinates": [43.538651, -5.650905]}}, {"type": "Feature", "properties": {"name": "Parking Parque de la F\u00e1brica de Gas"}, "geometry": {"type": "Point", "coordinates": [43.539631, -5.651187]}}, {"type": "Feature", "properties": {"name": "Calle Manso"}, "geometry": {"type": "Point", "coordinates": [43.53921, -5.647931]}}, {"type": "Feature", "properties": {"name": "Acceso al Parque"}, "geometry": {"type": "Point", "coordinates": [43.537964, -5.646362]}}, {"type": "Feature", "properties": {"name": "Calle Avelino Gonz\u00e1lez Mallada"}, "geometry": {"type": "Point", "coordinates": [43.532691, -5.649169]}}, {"type": "Feature", "properties": {"name": "Mercadona Gij\u00f3n Pintor Luis Pardo"}, "geometry": {"type": "Point", "coordinates": [43.530786, -5.64654]}}, {"type": "Feature", "properties": {"name": "El Molin\u00f3n-Enrique Castro Quini"}, "geometry": {"type": "Point", "coordinates": [43.534971, -5.637534]}}, {"type": "Feature", "properties": {"name": "C\u00e1mara de Comercio"}, "geometry": {"type": "Point", "coordinates": [43.541552, -5.636082]}}, {"type": "Feature", "properties": {"name": "E.S. Cepsa Gij\u00f3n (Zunder)"}, "geometry": {"type": "Point", "coordinates": [43.524606, -5.64138]}}, {"type": "Feature", "properties": {"name": "Univ. Oviedo EPI (EDP)"}, "geometry": {"type": "Point", "coordinates": [43.524216, -5.636648]}}, {"type": "Feature", "properties": {"name": "Univ. Oviedo Ed. INTRA"}, "geometry": {"type": "Point", "coordinates": [43.525522, -5.62373]}}, {"type": "Feature", "properties": {"name": "Univ. Oviedo Marina Civil Gij\u00f3n (Zunder)"}, "geometry": {"type": "Point", "coordinates": [43.525599, -5.629147]}}, {"type": "Feature", "properties": {"name": "Univ. Oviedo Biblioteca Gij\u00f3n (Zunder)"}, "geometry": {"type": "Point", "coordinates": [43.5248, -5.625256]}}, {"type": "Feature", "properties": {"name": "Univ. Oviedo Aulario Sur (Zunder)"}, "geometry": {"type": "Point", "coordinates": [43.523529, -5.623661]}}, {"type": "Feature", "properties": {"name": "Univ. Laboral Aparcamiento Parque Cient\u00edfico y Tecnol\u00f3gico"}, "geometry": {"type": "Point", "coordinates": [43.523476, -5.613044]}}, {"type": "Feature", "properties": {"name": "Universidad Laboral"}, "geometry": {"type": "Point", "coordinates": [43.524288, -5.612864]}}, {"type": "Feature", "properties": {"name": "Tanatorio Cabue\u00f1es"}, "geometry": {"type": "Point", "coordinates": [43.524776, -5.609279]}}, {"type": "Feature", "properties": {"name": "Club De Golf Castiello"}, "geometry": {"type": "Point", "coordinates": [43.502059, -5.6387]}}, {"type": "Feature", "properties": {"name": "Colegio Coraz\u00f3n de Mar\u00eda Gij\u00f3n"}, "geometry": {"type": "Point", "coordinates": [43.516852, -5.663061]}}]}