{
    "type": "FeatureCollection",
    "features": [
        {
            "type": "Feature",
            "properties": {
                "name": "Gij\u00f3n - Oriental"
            },
            "geometry": {
                "type": "Point",
                "coordinates": [
                    -5.697004,
                    43.540492
                ]
            }
        },
        {
            "type": "Feature",
            "properties": {
                "name": "Lidl Gij\u00f3n"
            },
            "geometry": {
                "type": "Point",
                "coordinates": [
                    -5.692192,
                    43.535017
                ]
            }
        },
        {
            "type": "Feature",
            "properties": {
                "name": "E.S. Ballenoil La Calzada"
            },
            "geometry": {
                "type": "Point",
                "coordinates": [
                    -5.690133,
                    43.535035
                ]
            }
        },
        {
            "type": "Feature",
            "properties": {
                "name": "El Corte Ingl\u00e9s Hipercor (Gij\u00f3n)"
            },
            "geometry": {
                "type": "Point",
                "coordinates": [
                    -5.679222,
                    43.524065
                ]
            }
        },
        {
            "type": "Feature",
            "properties": {
                "name": "Parque de Carlos Marx"
            },
            "geometry": {
                "type": "Point",
                "coordinates": [
                    -5.6726,
                    43.536609
                ]
            }
        },
        {
            "type": "Feature",
            "properties": {
                "name": "Mercadona Gij\u00f3n"
            },
            "geometry": {
                "type": "Point",
                "coordinates": [
                    -5.672012,
                    43.537896
                ]
            }
        },
        {
            "type": "Feature",
            "properties": {
                "name": "Parking Espig\u00f3n"
            },
            "geometry": {
                "type": "Point",
                "coordinates": [
                    -5.666568,
                    43.54325
                ]
            }
        },
        {
            "type": "Feature",
            "properties": {
                "name": "Calle \u00c1lvarez Garaya 10"
            },
            "geometry": {
                "type": "Point",
                "coordinates": [
                    -5.665551,
                    43.541324
                ]
            }
        },
        {
            "type": "Feature",
            "properties": {
                "name": "Calle \u00c1lvaro de Albornoz"
            },
            "geometry": {
                "type": "Point",
                "coordinates": [
                    -5.66642,
                    43.537916
                ]
            }
        },
        {
            "type": "Feature",
            "properties": {
                "name": "Calle Juan Alvargonzalez"
            },
            "geometry": {
                "type": "Point",
                "coordinates": [
                    -5.668825,
                    43.53031
                ]
            }
        },
        {
            "type": "Feature",
            "properties": {
                "name": "Avenida Gaspar Garc\u00eda Laviana"
            },
            "geometry": {
                "type": "Point",
                "coordinates": [
                    -5.665873,
                    43.525782
                ]
            }
        },
        {
            "type": "Feature",
            "properties": {
                "name": "Calle R\u00edo de Oro"
            },
            "geometry": {
                "type": "Point",
                "coordinates": [
                    -5.663792,
                    43.527558
                ]
            }
        },
        {
            "type": "Feature",
            "properties": {
                "name": "Calle La Argandona"
            },
            "geometry": {
                "type": "Point",
                "coordinates": [
                    -5.663979,
                    43.535503
                ]
            }
        },
        {
            "type": "Feature",
            "properties": {
                "name": "APK2 Parking Plaza de Europa"
            },
            "geometry": {
                "type": "Point",
                "coordinates": [
                    -5.663596,
                    43.538483
                ]
            }
        },
        {
            "type": "Feature",
            "properties": {
                "name": "Calle Periodista Adeflor"
            },
            "geometry": {
                "type": "Point",
                "coordinates": [
                    -5.661913,
                    43.538026
                ]
            }
        },
        {
            "type": "Feature",
            "properties": {
                "name": "Parking Jardines del Na\u00fatico (Telepark)"
            },
            "geometry": {
                "type": "Point",
                "coordinates": [
                    -5.660199,
                    43.542192
                ]
            }
        },
        {
            "type": "Feature",
            "properties": {
                "name": "Antigua Pescaderia Municipal"
            },
            "geometry": {
                "type": "Point",
                "coordinates": [
                    -5.662169,
                    43.544436
                ]
            }
        },
        {
            "type": "Feature",
            "properties": {
                "name": "Plaza San Miguel"
            },
            "geometry": {
                "type": "Point",
                "coordinates": [
                    -5.658071,
                    43.539997
                ]
            }
        },
        {
            "type": "Feature",
            "properties": {
                "name": "Parking Zarracina"
            },
            "geometry": {
                "type": "Point",
                "coordinates": [
                    -5.656813,
                    43.536984
                ]
            }
        },
        {
            "type": "Feature",
            "properties": {
                "name": "8D Calle Pe\u00f1alba"
            },
            "geometry": {
                "type": "Point",
                "coordinates": [
                    -5.654622,
                    43.535414
                ]
            }
        },
        {
            "type": "Feature",
            "properties": {
                "name": "Parking Plaza Bego\u00f1a"
            },
            "geometry": {
                "type": "Point",
                "coordinates": [
                    -5.660194,
                    43.537385
                ]
            }
        },
        {
            "type": "Feature",
            "properties": {
                "name": "7 Avenida de El Llano"
            },
            "geometry": {
                "type": "Point",
                "coordinates": [
                    -5.66031,
                    43.534402
                ]
            }
        },
        {
            "type": "Feature",
            "properties": {
                "name": "Calle Canga Arg\u00fcelles"
            },
            "geometry": {
                "type": "Point",
                "coordinates": [
                    -5.650905,
                    43.538651
                ]
            }
        },
        {
            "type": "Feature",
            "properties": {
                "name": "Parking Parque de la F\u00e1brica de Gas"
            },
            "geometry": {
                "type": "Point",
                "coordinates": [
                    -5.651187,
                    43.539631
                ]
            }
        },
        {
            "type": "Feature",
            "properties": {
                "name": "Calle Manso"
            },
            "geometry": {
                "type": "Point",
                "coordinates": [
                    -5.647931,
                    43.53921
                ]
            }
        },
        {
            "type": "Feature",
            "properties": {
                "name": "Acceso al Parque"
            },
            "geometry": {
                "type": "Point",
                "coordinates": [
                    -5.646362,
                    43.537964
                ]
            }
        },
        {
            "type": "Feature",
            "properties": {
                "name": "Calle Avelino Gonz\u00e1lez Mallada"
            },
            "geometry": {
                "type": "Point",
                "coordinates": [
                    -5.649169,
                    43.532691
                ]
            }
        },
        {
            "type": "Feature",
            "properties": {
                "name": "Mercadona Gij\u00f3n Pintor Luis Pardo"
            },
            "geometry": {
                "type": "Point",
                "coordinates": [
                    -5.64654,
                    43.530786
                ]
            }
        },
        {
            "type": "Feature",
            "properties": {
                "name": "El Molin\u00f3n-Enrique Castro Quini"
            },
            "geometry": {
                "type": "Point",
                "coordinates": [
                    -5.637534,
                    43.534971
                ]
            }
        },
        {
            "type": "Feature",
            "properties": {
                "name": "C\u00e1mara de Comercio"
            },
            "geometry": {
                "type": "Point",
                "coordinates": [
                    -5.636082,
                    43.541552
                ]
            }
        },
        {
            "type": "Feature",
            "properties": {
                "name": "E.S. Cepsa Gij\u00f3n (Zunder)"
            },
            "geometry": {
                "type": "Point",
                "coordinates": [
                    -5.64138,
                    43.524606
                ]
            }
        },
        {
            "type": "Feature",
            "properties": {
                "name": "Univ. Oviedo EPI (EDP)"
            },
            "geometry": {
                "type": "Point",
                "coordinates": [
                    -5.636648,
                    43.524216
                ]
            }
        },
        {
            "type": "Feature",
            "properties": {
                "name": "Univ. Oviedo Ed. INTRA"
            },
            "geometry": {
                "type": "Point",
                "coordinates": [
                    -5.62373,
                    43.525522
                ]
            }
        },
        {
            "type": "Feature",
            "properties": {
                "name": "Univ. Oviedo Marina Civil Gij\u00f3n (Zunder)"
            },
            "geometry": {
                "type": "Point",
                "coordinates": [
                    -5.629147,
                    43.525599
                ]
            }
        },
        {
            "type": "Feature",
            "properties": {
                "name": "Univ. Oviedo Biblioteca Gij\u00f3n (Zunder)"
            },
            "geometry": {
                "type": "Point",
                "coordinates": [
                    -5.625256,
                    43.5248
                ]
            }
        },
        {
            "type": "Feature",
            "properties": {
                "name": "Univ. Oviedo Aulario Sur (Zunder)"
            },
            "geometry": {
                "type": "Point",
                "coordinates": [
                    -5.623661,
                    43.523529
                ]
            }
        },
        {
            "type": "Feature",
            "properties": {
                "name": "Univ. Laboral Aparcamiento Parque Cient\u00edfico y Tecnol\u00f3gico"
            },
            "geometry": {
                "type": "Point",
                "coordinates": [
                    -5.613044,
                    43.523476
                ]
            }
        },
        {
            "type": "Feature",
            "properties": {
                "name": "Universidad Laboral"
            },
            "geometry": {
                "type": "Point",
                "coordinates": [
                    -5.612864,
                    43.524288
                ]
            }
        },
        {
            "type": "Feature",
            "properties": {
                "name": "Tanatorio Cabue\u00f1es"
            },
            "geometry": {
                "type": "Point",
                "coordinates": [
                    -5.609279,
                    43.524776
                ]
            }
        },
        {
            "type": "Feature",
            "properties": {
                "name": "Club De Golf Castiello"
            },
            "geometry": {
                "type": "Point",
                "coordinates": [
                    -5.6387,
                    43.502059
                ]
            }
        },
        {
            "type": "Feature",
            "properties": {
                "name": "Colegio Coraz\u00f3n de Mar\u00eda Gij\u00f3n"
            },
            "geometry": {
                "type": "Point",
                "coordinates": [
                    -5.663061,
                    43.516852
                ]
            }
        }
    ]
}